{
    "points": [
        {
            "name": "Parque de la Familia",
            "address": "Av. del Bicentenario",
            "lat": -29.45351810907224,
            "lon": -66.86776228707136,
            "img": "https://i1.wp.com/rioja24.com.ar/wp-content/uploads/2021/07/Parque-de-la-familia.jpg"
        },
        {
            "name": "Polideportivo de Vargas",
            "address": "Jorge Newbery",
            "lat": -29.395313586001965,
            "lon": -66.84605628698465,
            "img": "https://riojavirtual.com.ar/wp-content/uploads/2019/11/70925_1486084087-1200x545_c.jpg"
        },
        {
            "name": "Rioja Juniors",
            "address": "Chacho Peñaloza",
            "lat": -29.42070018295717,
            "lon": -66.84067594123059,
            "img": "https://streetviewpixels-pa.googleapis.com/v1/thumbnail?panoid=q-ub9r89aHjIDu3CW0o96A&cb_client=search.gws-prod.gps&w=408&h=240&yaw=293.01364&pitch=0&thumbfov=100"
        },
        {
            "name": "Sindicato del Plástico",
            "address": "Tala",
            "lat": -29.453046174721962, 
            "lon": -66.86397674360043,
            "img": "http://uoyepweb.org.ar/wp-content/uploads/2020/06/02-3.jpg"
        },
        {
            "name": "SUM Polivalente",
            "address": "Puerto Argentino",
            "lat": -29.415087474682004, 
            "lon": -66.84023627394475,
            "img": "http://fenix951.com.ar/Nuevo_2013/imagenes/198393_1624452728.jpg"
        },
        {
            "name": "Super Domo",
            "address": "Av. Dr. Cesar E. Romero",
            "lat": -29.440608644455544,
            "lon": -66.89345885282397,
            "img": "https://www.nuevarioja.com.ar/img/noticias/32759_1612535456.jpg_g.jpg"
        }
]}